{
  "name": "Overland Border Situational Awareness (synthetic)",
  "note": "Synthetic overland force-protection awareness scenario. Includes a deliberate spatial contradiction (an entity reported in two far-apart places nearly simultaneously) and an off-pattern movement, to exercise contradiction + anomaly analytics. No targeting content.",
  "sources": {
    "geoint": [
      {"source": "uas-eo", "timestamp": "2026-03-01T05:00:00Z", "entity": "Convoy-7", "entity_type": "vehicle", "lat": 31.500, "lon": 34.470, "speed_kn": 20, "track_id": "T7"},
      {"source": "uas-eo", "timestamp": "2026-03-01T06:00:00Z", "entity": "Convoy-7", "entity_type": "vehicle", "lat": 31.520, "lon": 34.500, "speed_kn": 22, "track_id": "T7"},
      {"source": "uas-eo", "timestamp": "2026-03-01T06:05:00Z", "entity": "Convoy-7", "entity_type": "vehicle", "lat": 33.900, "lon": 36.900, "speed_kn": 25, "track_id": "T7"},
      {"source": "uas-eo", "timestamp": "2026-03-01T07:00:00Z", "entity": "Convoy-7", "entity_type": "vehicle", "lat": 31.560, "lon": 34.560, "speed_kn": 18, "track_id": "T7"}
    ],
    "osint": [
      {"source": "localnews", "timestamp": "2026-03-01T04:30:00Z", "title": "Convoy of vehicles moving toward the border crossing near the outpost", "entity": "Convoy-7", "entity_type": "vehicle"}
    ],
    "humint": [
      {"source": "patrol", "source_id": "P-3", "timestamp": "2026-03-01T06:10:00Z", "report": "Patrol observed the convoy stationary near the wadi; occupants dismounted.", "entity": "Convoy-7", "entity_type": "vehicle", "reliability": "B", "credibility": "2"}
    ],
    "masint": [
      {"sensor": "seismic-node-4", "phenomenology": "seismic", "measurement": 2.1, "unit": "mm/s", "timestamp": "2026-03-01T06:02:00Z", "lat": 31.515, "lon": 34.495, "entity": "Convoy-7", "entity_type": "vehicle"}
    ]
  },
  "zones": [
    {"name": "Forward Outpost (keep-out 5km)", "lat": 31.560, "lon": 34.560, "radius_km": 5.0, "kind": "keep-out", "note": "friendly force-protection radius"},
    {"name": "Border Corridor AOI", "lat": 31.53, "lon": 34.51, "radius_km": 25.0, "kind": "area-of-interest", "note": "overland domain awareness"}
  ]
}
